File,Camera,Time,Lat,Lon,Alt,Roll,Pitch,Heading
2009-05-31 00:00:00
00010001.JPG,CAM01,313829.039836771,12.5330662117385,-7.95055884400073,9156.09689615329,-3.74476289749146,1.68333196640015,48.587890625
00010002.JPG,CAM01,313832.343370311,12.535442179539,-7.94759036811108,9154.53426902459,-3.32415795326233,1.60648095607758,47.9330215454102
00010003.JPG,CAM01,313835.655506455,12.5378622699544,-7.944641629307,9153.69188327144,-3.77221393585205,1.65336298942566,47.0582618713379
00010004.JPG,CAM01,313838.957084394,12.5403136167722,-7.94173370048139,9152.53241276669,-3.50893998146057,1.53149199485779,46.1901588439941
00010005.JPG,CAM01,313842.250043621,12.5427959432056,-7.93886317779039,9151.35961268455,-3.68949699401855,1.57432401180267,45.312931060791
00010006.JPG,CAM01,313845.549178202,12.5453213527661,-7.93601922653185,9149.8780340251,-3.63059401512146,1.62308204174042,44.3627395629883
00010007.JPG,CAM01,313848.859292041,12.5478912746846,-7.93320022679797,9147.23320128928,-3.1911358833313,1.74389398097992,43.5694007873535
00010008.JPG,CAM01,313852.160753636,12.5504881126724,-7.93042033239431,9145.90441906671,-3.42045903205872,1.82400000095367,43.1075401306152
00010009.JPG,CAM01,313855.453289047,12.5531087356014,-7.92768067268511,9146.20028561217,-3.36220598220825,1.96874594688416,42.3309783935547
00010010.JPG,CAM01,313858.770576528,12.5557784970652,-7.92495744808118,9144.89016940895,-4.08579301834106,1.67313897609711,41.7069206237793
00010011.JPG,CAM01,313862.062907442,12.5584644528802,-7.92229645186153,9143.96668056602,-4.36254692077637,1.80914795398712,40.8438491821289
00010012.JPG,CAM01,313865.361611227,12.5611892599654,-7.91967183323283,9142.54054735509,-3.63403391838074,1.62963497638702,39.6377487182617
00010013.JPG,CAM01,313868.65903837,12.5639365594501,-7.91707695570477,9142.49048530098,0.972805500030518,1.87237000465393,39.3950996398926
00010014.JPG,CAM01,313871.969745916,12.5666838674886,-7.91446038679855,9140.28515824258,-0.770779609680176,1.64168095588684,39.6133995056152
00010015.JPG,CAM01,313875.265632835,12.5694162756441,-7.91185261047299,9139.5317054484,-2.34621405601501,1.88598501682281,39.997371673584
00010016.JPG,CAM01,313878.565717867,12.5721643233717,-7.90925866541847,9140.58823648002,-0.401123404502869,2.03817105293274,39.6338691711426
00010017.JPG,CAM01,313881.866407031,12.5749078754569,-7.90666790306198,9141.53665748553,1.1143239736557,2.08355188369751,39.7491111755371
00010018.JPG,CAM01,313885.179118936,12.5776389582665,-7.90405154257116,9142.57098076107,0.911696970462799,1.96072697639465,39.9830513000488
00010019.JPG,CAM01,313888.4711055,12.5803342792652,-7.9014378554777,9143.01958977721,0.602803587913513,1.93178701400757,40.237060546875
00010020.JPG,CAM01,313891.77073641,12.5830232567337,-7.89880987600113,9142.99896855821,-0.0769741907715797,1.72578501701355,40.3936614990234
00010021.JPG,CAM01,313895.08239116,12.5857181836732,-7.89616843904267,9142.58663027756,-0.182445600628853,1.80430400371552,40.316951751709
00010022.JPG,CAM01,313898.384051882,12.5884064554829,-7.89353208146617,9141.81184400764,-0.503417372703552,1.74643695354462,40.2148513793945
00010023.JPG,CAM01,313901.67655599,12.5910926461837,-7.89090101015391,9141.73502293781,0.769536912441254,1.77596604824066,39.937931060791
00010024.JPG,CAM01,313904.972332804,12.5937726438365,-7.88825022920056,9140.66842746009,4.08658599853516,1.73434996604919,40.3730392456055
00010025.JPG,CAM01,313908.286996054,12.5964212908859,-7.885527811999,9139.71497967691,8.28287410736084,1.95327699184418,41.5908088684082
00010026.JPG,CAM01,313911.581132265,12.5989696705448,-7.88271645746355,9137.1352931065,9.07869720458984,2.02529811859131,44.3735694885254
00010027.JPG,CAM01,313914.88009499,12.6014243386118,-7.87979798706405,9136.51327960109,6.68990993499756,2.22785091400146,47.0463104248047
00010028.JPG,CAM01,313918.190776958,12.6038003463614,-7.87678845290992,9138.22673787231,7.47710800170898,2.16401100158691,48.9768905639648
00010029.JPG,CAM01,313921.491144439,12.6060822688422,-7.87371534441127,9139.30505918447,1.03470599651337,2.1097400188446,50.4076690673828
00010030.JPG,CAM01,313924.78737337,12.608334333663,-7.8706254904199,9142.01470288173,-0.816107571125031,1.9932359457016,50.4127616882324
00010031.JPG,CAM01,313928.089551405,12.6105902363515,-7.86753038633181,9143.27211853667,2.08285307884216,1.96863794326782,50.8844299316406
00010032.JPG,CAM01,313931.396062956,12.6128252328604,-7.86441092121404,9143.83801179383,0.310868114233017,2.00187301635742,51.1429214477539
00010033.JPG,CAM01,313934.697045825,12.6150481373764,-7.86128745531812,9144.80152431351,0.353794306516647,1.85011398792267,50.9611015319824
00010034.JPG,CAM01,313937.990746161,12.6172608216566,-7.85816278012648,9146.59516254951,0.697827994823456,1.7994270324707,50.9740982055664
00010035.JPG,CAM01,313941.290436916,12.6194691502686,-7.85502201353342,9147.23953193578,0.917731285095215,1.8041900396347,51.2143592834473
00010036.JPG,CAM01,313944.603745028,12.621679975386,-7.85185626932991,9146.81757287918,-0.0661938562989235,1.66319298744202,51.1812896728516
00010037.JPG,CAM01,313947.897557036,12.6238805189819,-7.84870239959271,9146.37806391525,0.481038987636566,1.68103194236755,50.961109161377
00010038.JPG,CAM01,313951.194542593,12.6260801557014,-7.84553675226535,9145.7974422391,0.551926970481873,1.60747802257538,51.2851905822754
00010039.JPG,CAM01,313954.491606667,12.6282736896143,-7.84236175544275,9145.36957442895,0.674745082855225,1.74500000476837,51.4007110595703
00010040.JPG,CAM01,313957.803960346,12.6304703217141,-7.83916476868785,9143.98223051638,0.257291197776794,1.53914499282837,51.6103897094727
00010041.JPG,CAM01,313961.10121579,12.6326513089078,-7.8359751769969,9144.25522115906,0.216193497180939,1.70642101764679,51.3850402832031
00010042.JPG,CAM01,313964.396669973,12.6348265535761,-7.83278345206715,9144.20604160719,0.546628594398499,1.74449694156647,51.4443206787109
00010043.JPG,CAM01,313967.701453464,12.6370011691671,-7.82957648353215,9143.63466914948,0.268914014101028,1.59425497055054,51.7155990600586
00010044.JPG,CAM01,313971.008007453,12.6391714658739,-7.82636201577635,9143.467699819,0.0153330499306321,1.55884099006653,51.6102905273438
00010045.JPG,CAM01,313974.315365122,12.6413401282391,-7.82314400496378,9142.60334292613,-0.0628449395298958,1.53329002857208,51.5799293518066
00010046.JPG,CAM01,313977.602254019,12.6434946425191,-7.81994339567207,9141.67367482035,0.228300198912621,1.57448494434357,51.6053810119629
00010047.JPG,CAM01,313980.911393477,12.6456593327479,-7.81671697301897,9140.68643046949,0.125442996621132,1.68996202945709,51.7968101501465
00010048.JPG,CAM01,313984.211873008,12.6478143984708,-7.81349762394236,9139.79865718213,-0.0214430391788483,1.69267702102661,52.0275688171387
00010049.JPG,CAM01,313987.508560553,12.6499658143678,-7.81028392973082,9140.55231696495,-0.525124073028564,1.76377594470978,52.0337905883789
00010050.JPG,CAM01,313990.804671935,12.6521205079911,-7.80707906477057,9141.84720559032,-0.144921600818634,1.72553503513336,51.9098892211914
00010051.JPG,CAM01,313994.117893581,12.6542871077023,-7.80386307907295,9142.19258854331,-0.193924099206924,1.72973299026489,51.8427505493164
00010052.JPG,CAM01,313997.414099036,12.6564423781679,-7.80066686371861,9142.418363205,-0.0109190000221133,1.69691801071167,51.6677093505859
00010053.JPG,CAM01,314000.714284967,12.6586002970059,-7.79746931467022,9143.32806466664,-0.155705794692039,1.59839105606079,51.6175498962402
00010054.JPG,CAM01,314004.025190344,12.6607644273732,-7.79426132044619,9145.16211832713,0.717075824737549,1.60469901561737,51.5866813659668
00010055.JPG,CAM01,314007.323682305,12.6629122460808,-7.79106073047806,9145.36080855429,0.0243270508944988,1.56451094150543,51.7584915161133
00010056.JPG,CAM01,314010.621711594,12.665058322411,-7.78785966835975,9143.5873079302,-0.000912012415938079,1.56220901012421,51.8509216308594
00010057.JPG,CAM01,314013.917576912,12.6672037024958,-7.78466084351045,9141.8401554533,-0.183771997690201,1.62868595123291,51.824348449707
00010058.JPG,CAM01,314017.236537216,12.6693638834418,-7.78143939851292,9140.59747308186,0.188910499215126,1.60638499259949,51.8028411865234
00010059.JPG,CAM01,314020.525970091,12.6715028877832,-7.7782442046194,9139.50219088082,0.296203285455704,1.56914794445038,51.6621894836426
00010060.JPG,CAM01,314023.822957997,12.6736428548894,-7.77503695387036,9138.90262558921,0.612960875034332,1.61025500297546,51.5842208862305
00010061.JPG,CAM01,314027.138030547,12.6757867077955,-7.77180438821402,9138.87428006269,0.495185792446136,1.76196300983429,51.7129592895508
00010062.JPG,CAM01,314030.430638338,12.6779072326513,-7.7685885935603,9138.1707638041,0.55183207988739,1.75902903079987,51.751708984375
00010063.JPG,CAM01,314033.731318235,12.6800254469447,-7.76536036364507,9137.61370681482,0.0606348998844624,1.72772705554962,51.8350715637207
00010064.JPG,CAM01,314037.027922514,12.6821386814007,-7.76213580547512,9137.78542946031,1.47563099861145,1.61737203598022,52.1558990478516
00010065.JPG,CAM01,314040.340538167,12.6842178960455,-7.75886694580804,9136.03905115916,15.6617803573608,1.90574300289154,53.210880279541
00010066.JPG,CAM01,314043.639242343,12.686100780252,-7.75547881865326,9124.37796332627,23.3009605407715,1.72577202320099,57.7999000549316
00010067.JPG,CAM01,314046.935604355,12.6876579627359,-7.75188984936907,9110.67440053816,23.3200607299805,2.3501250743866,66.1338424682617
00010068.JPG,CAM01,314050.247442546,12.6888108120742,-7.74810371216123,9104.18821166879,26.3848991394043,2.80749201774597,72.3065719604492
00010069.JPG,CAM01,314053.545079006,12.6895016933395,-7.74420725101313,9098.39797582243,29.2920799255371,2.89063596725464,80.4315795898438
00010070.JPG,CAM01,314056.841353339,12.6896584312189,-7.74024098338466,9091.41427226245,33.6516189575195,2.9594669342041,89.2413711547852
00010071.JPG,CAM01,314060.140169929,12.6891971744745,-7.73628244919358,9083.27911526825,33.0565605163574,3.02985692024231,100.036003112793
00010072.JPG,CAM01,314063.449923599,12.6880863686847,-7.73244375264424,9080.13856666323,32.0857887268066,3.35658311843872,110.413497924805
00010073.JPG,CAM01,314066.747708978,12.68638141589,-7.72888025096282,9082.9117910219,31.5867404937744,3.51397204399109,120.874000549316
00010074.JPG,CAM01,314070.046092201,12.6841473037392,-7.72567566714886,9089.67777303837,31.5399208068848,3.84366202354431,130.649200439453
00010075.JPG,CAM01,314073.342739127,12.6814670952248,-7.7229084100082,9097.72506795614,33.6929702758789,3.69599509239197,139.703002929688
00010076.JPG,CAM01,314076.656873301,12.6783988721647,-7.72062700649754,9103.65590777197,29.887170791626,3.453528881073,149.509002685547
00010077.JPG,CAM01,314079.95205959,12.6750705844781,-7.71889115682528,9111.02560724875,29.2299404144287,3.53268694877625,158.26139831543
,CAM01,315340.820582497,13.5545602185253,-7.1187307803472,9327.90082643032,-0.717493772506714,0.39118829369545,35.4357604980469
,CAM01,315344.138124028,13.5580959481482,-7.11600687455222,9327.84952995522,-0.753528714179993,0.372965186834335,35.4895286560059
,CAM01,315347.432689392,13.5616074598844,-7.11330453091232,9327.72082845291,-0.756747424602509,0.379492700099945,35.5486297607422
,CAM01,315350.729064142,13.5651207799735,-7.11060306090192,9327.50508990569,-0.635050415992737,0.372750014066696,35.548168182373
,CAM01,315354.042092055,13.5686503347006,-7.10788856592069,9327.36901028651,-0.512622177600861,0.421571493148804,35.5533714294434
,CAM01,315357.34089711,13.5721613757261,-7.10518505120175,9327.91911309764,-0.546221613883972,0.468282610177994,35.5569610595703
,CAM01,315360.635873211,13.5756649044976,-7.10248507856612,9328.55768256348,-0.604524374008179,0.466435998678207,35.5686912536621
,CAM01,315363.942426464,13.5791782320686,-7.09977698181333,9328.73302171764,-0.747739493846893,0.392867803573608,35.5763206481934
,CAM01,315367.2491551,13.5826912312266,-7.09707108740849,9328.82463853887,-0.754128873348236,0.387933105230331,35.6035690307617
,CAM01,315370.553606378,13.5862016070586,-7.09436973385777,9328.59875543452,-0.732411980628967,0.387082606554031,35.6662902832031
,CAM01,315373.840235533,13.5896926192988,-7.09168468741515,9328.22951620768,-0.732132017612457,0.362794607877731,35.6298789978027
,CAM01,315377.146186544,13.5932042052521,-7.08898522266887,9328.35501863299,-0.55676531791687,0.394988805055618,35.6866111755371
,CAM01,315380.451914458,13.5967126346792,-7.08628534301704,9329.06583855349,-0.385414808988571,0.423130005598068,35.9561996459961
,CAM01,315383.749693161,13.600204058877,-7.08358918679323,9330.31800029328,-0.429480403661728,0.439256906509399,36.251091003418
,CAM01,315387.043270252,13.6036814237959,-7.08089414741118,9330.71359315993,-0.953732073307037,0.346853196620941,36.354621887207
,CAM01,315390.370424515,13.6071895135471,-7.07817427095528,9329.83921369543,-1.3084260225296,0.302650392055511,36.3606986999512
,CAM01,315393.654076781,13.6106511864301,-7.07549621792312,9328.02052179807,-1.30899000167847,0.287289500236511,36.2414588928223
,CAM01,315396.961505575,13.6141380534881,-7.07280430058449,9326.1193559057,-1.18208396434784,0.351521700620651,36.0652503967285
,CAM01,315400.249107844,13.6176025477653,-7.07013301591188,9325.50418673564,-1.02500903606415,0.442449897527695,36.0810394287109
,CAM01,315403.557833886,13.6210856843817,-7.06744830130926,9326.12216303728,-0.854741215705872,0.462572693824768,36.1830711364746
,CAM01,315406.85746159,13.6245533424785,-7.06477267676229,9327.41186737207,-0.807589888572693,0.479580909013748,36.2088394165039
,CAM01,315410.1635885,13.6280213903172,-7.06209285879355,9328.14957974924,-1.00833296775818,0.397669196128845,36.131721496582
,CAM01,315413.452669542,13.63146789352,-7.05942934531162,9327.7226262985,-1.02786898612976,0.36024421453476,36.0396995544434
,CAM01,315416.768622646,13.634940661424,-7.05674726708136,9327.2385590477,-1.03716504573822,0.370268911123276,35.9938201904297
,CAM01,315420.062421315,13.6383886474142,-7.05408594209768,9327.30797943914,-0.89319908618927,0.386337697505951,35.9802589416504
,CAM01,315423.359179234,13.6418370753115,-7.051423354965,9328.09955004868,-0.981097280979156,0.340164810419083,36.0415191650391
,CAM01,315426.659429891,13.6452873456234,-7.04875999466772,9328.69059091291,-1.12846100330353,0.315978109836578,36.0270309448242
,CAM01,315429.972081644,13.6487499892052,-7.04609022732838,9328.10669298408,-1.14373600482941,0.271785289049149,35.9845199584961
,CAM01,315433.265514738,13.6521926027163,-7.04343945531077,9326.31060130299,-0.879705309867859,0.344736307859421,35.9786605834961
,CAM01,315436.566286269,13.6556397038455,-7.04078264456632,9325.25221496769,-0.701762080192566,0.430700302124023,35.944881439209
,CAM01,315439.860890241,13.6590744730855,-7.0381293494427,9325.66599162179,-0.841212570667267,0.468881905078888,35.9618606567383
,CAM01,315443.171800878,13.6625215699115,-7.03546304602594,9326.34699013741,-1.12169897556305,0.444382607936859,36.0029182434082
,CAM01,315446.468293985,13.6659525047655,-7.03281060404912,9326.2270552454,-1.27226603031158,0.377143800258636,36.0030097961426
,CAM01,315449.775171079,13.6693952544513,-7.03015310717655,9325.03251794896,-1.25758504867554,0.373874008655548,35.964900970459
,CAM01,315453.064424338,13.6728209451314,-7.02751242959598,9323.80281872301,-1.08937096595764,0.437571287155151,35.972038269043
,CAM01,315456.38293973,13.67627667749,-7.02484938273989,9323.28837264798,-1.02288901805878,0.492608487606049,35.9117088317871
,CAM01,315459.671982123,13.6796992817774,-7.02220971881384,9323.11180490286,-0.884563088417053,0.555733799934387,35.7540588378906
,CAM01,315462.97495823,13.6831324943559,-7.0195573966612,9323.12588023884,-0.919296681880951,0.556523680686951,35.6680183410645
,CAM01,315466.282840531,13.6865675849077,-7.01690045529988,9323.3934193577,-1.07327604293823,0.531342804431915,35.6645011901855
,CAM01,315469.586321032,13.6899968821211,-7.01424843028979,9323.83917220455,-1.24676394462585,0.471311986446381,35.6288299560547
,CAM01,315472.874643461,13.6934115536112,-7.01161156291865,9323.99368480857,-1.27395498752594,0.440234988927841,35.6088409423828
,CAM01,315476.170569478,13.696835835154,-7.00897205114602,9323.69422049819,-1.22476398944855,0.460173100233078,35.6112785339355
,CAM01,315479.490172106,13.7002855443836,-7.0063164430043,9322.82970801108,-1.08916997909546,0.449049592018127,35.6100082397461
,CAM01,315482.782770336,13.7037067101063,-7.00368314497924,9321.70208285861,-1.00256502628326,0.507488012313843,35.5832710266113
,CAM01,315486.080622349,13.7071317163273,-7.00104494896854,9320.8740184273,-0.912614405155182,0.599411189556122,35.6206398010254
,CAM01,315489.381171368,13.7105567666119,-6.99840150317308,9321.03173255642,-0.990036070346832,0.659265995025635,35.6925392150879
,CAM01,315492.687612131,13.7139851876413,-6.99575085857636,9321.45835743233,-1.16689300537109,0.667392075061798,35.6543083190918
,CAM01,315495.989835265,13.7174083681053,-6.99310345614585,9322.02076717537,-1.31210601329803,0.587079524993896,35.5654411315918
,CAM01,315499.285584386,13.7208263387214,-6.99046256081497,9322.8330087937,-1.35621798038483,0.535472989082336,35.4386596679688
,CAM01,315502.601096738,13.7242674790494,-6.98780755757792,9323.79606583287,-1.30092000961304,0.505904316902161,35.3569107055664
,CAM01,315505.894523563,13.7276878639676,-6.9851715402698,9324.45912426481,-1.17622601985931,0.450812488794327,35.2541007995605
,CAM01,315509.20677419,13.7311288462509,-6.98252138447325,9324.76626683094,-1.1003350019455,0.430569887161255,35.1838684082031
,CAM01,315512.487351055,13.7345374616006,-6.97989759431752,9324.43560390712,-1.0042040348053,0.409505695104599,35.2495193481445
,CAM01,315515.802204609,13.7379807591232,-6.97724558269226,9323.97733034832,-0.804917991161346,0.472920894622803,35.2470397949219
,CAM01,315519.096584672,13.7413999410467,-6.97460715235488,9323.65989732454,-0.847053289413452,0.514594495296478,35.2263488769531
,CAM01,315522.392939612,13.7448194307492,-6.97196477417163,9322.83098112983,-1.06401801109314,0.492241591215134,35.0781402587891
,CAM01,315525.704545414,13.748259694568,-6.96930927286543,9321.83498839441,-1.14459502696991,0.502084374427795,34.7924003601074
,CAM01,315529.010201278,13.7517030359504,-6.96665911083383,9320.53261964766,-1.11065304279327,0.536527216434479,34.7353591918945
,CAM01,315532.306130507,13.7551457388079,-6.96401477267556,9319.40404449619,-0.811030924320221,0.550451278686523,34.8905792236328
,CAM01,315535.598382862,13.7585867016561,-6.96136681173905,9319.21799933746,-0.576421320438385,0.719866573810577,35.159351348877
,CAM01,315538.910209721,13.7620448193346,-6.95869444384831,9320.84555895209,-0.836771726608276,0.69735050201416,35.3596687316895
,CAM01,315542.214369232,13.7654928435019,-6.95602295429945,9322.75303839478,-1.04317796230316,0.664147675037384,35.5149383544922
,CAM01,315545.509935207,13.7689320682584,-6.95335574681344,9323.87810219047,-1.33044803142548,0.546487271785736,35.5183601379395
,CAM01,315548.827262588,13.7723981641672,-6.95067070492308,9324.41866968445,-1.41468596458435,0.487661302089691,35.4794502258301
,CAM01,315552.116962595,13.775840971493,-6.94800867221477,9323.90319443642,-1.35380101203918,0.465200185775757,35.4479904174805
,CAM01,315555.4119698,13.7792950360181,-6.94534270843282,9324.14432619602,-1.37866294384003,0.479785412549973,35.4644203186035
,CAM01,315558.706100502,13.7827535507283,-6.94267810442192,9325.11885206387,-1.16724300384521,0.475674688816071,35.4797706604004
,CAM01,315562.029871243,13.7862460663023,-6.93998725147885,9326.05019211605,-0.828720271587372,0.508549094200134,35.5658988952637
,CAM01,315565.315249386,13.7896979804476,-6.93732120635477,9327.17761866815,-0.867348074913025,0.484920293092728,35.6206283569336
,CAM01,315568.617725581,13.7931676186591,-6.93463541739153,9327.37235740163,-1.13679301738739,0.461668312549591,35.6841812133789
,CAM01,315571.912676457,13.7966315966063,-6.93195351651581,9327.43778107584,-1.41219997406006,0.375515013933182,35.6746482849121
,CAM01,315575.230891074,13.8001262068368,-6.92925344749951,9329.12081291312,-1.51665794849396,0.339740395545959,35.6375503540039
,CAM01,315578.519888999,13.8035971205173,-6.92657850870119,9331.4856495448,-1.16427195072174,0.295353710651398,35.6008186340332
,CAM01,315581.824093841,13.8070880760297,-6.92388851800902,9331.18986676155,-0.797184884548187,0.277717888355255,35.6370811462402
,CAM01,315585.133301334,13.8105853787833,-6.92118678550629,9330.1860942082,-0.948741912841797,0.291553288698196,35.7250709533691
,CAM01,315588.438552991,13.8140799722138,-6.91848218327797,9328.5212354755,-1.0256210565567,0.402803391218185,35.7168807983398
,CAM01,315591.720756271,13.8175511442625,-6.91579249683594,9326.22286293654,-1.33380794525146,0.388519287109375,35.5597915649414
,CAM01,315595.019437588,13.8210432520277,-6.91308897609166,9324.57662172,-1.51193904876709,0.372524499893188,35.3549308776855
,CAM01,315598.33251763,13.824555157513,-6.91037832009753,9324.76450485368,-1.37831497192383,0.408173501491547,35.0031700134277
,CAM01,315601.633119093,13.8280541998216,-6.90768798914952,9325.40520340413,-1.09381902217865,0.414881706237793,34.8572807312012
,CAM01,315604.92844603,13.8315454907369,-6.90500999364031,9325.91641205745,-0.687775313854218,0.409391492605209,34.9282493591309
,CAM01,315608.243546476,13.8350518117439,-6.90231865538435,9325.31114608614,-0.20295050740242,0.476324409246445,35.1406097412109
,CAM01,315611.5355476,13.8385226235855,-6.89964265315212,9323.96989463433,-0.692412614822388,0.480447888374329,35.0716705322266
,CAM01,315614.832595569,13.8419917556134,-6.89696341184352,9323.29628783552,-1.12883102893829,0.441690385341644,34.949779510498
,CAM01,315618.135424289,13.8454653019361,-6.8942864836074,9322.91126956673,-1.08604395389557,0.481551885604858,34.9423599243164
,CAM01,315621.447531034,13.8489465789243,-6.89160930980269,9321.57926396261,-1.00366401672363,0.524651288986206,34.8912200927734
,CAM01,315624.738855087,13.8524019992972,-6.8889541987679,9319.26059986947,-0.958314895629883,0.568815290927887,34.6694183349609
,CAM01,315628.037209529,13.8558606116728,-6.88629797072324,9318.32566345389,-0.518788516521454,0.68259197473526,34.7267684936523
,CAM01,315631.351392164,13.8593267468616,-6.88362792627985,9320.28436333045,-0.459658086299896,0.729166984558105,34.7094192504883
,CAM01,315634.652840263,13.8627702586308,-6.88096658116642,9323.78622119499,-0.84204888343811,0.573297321796417,34.8373908996582
,CAM01,315637.947139494,13.8662046245034,-6.87831007370592,9326.94154552876,-0.996089398860931,0.493904888629913,35.1917610168457
,CAM01,315641.247147828,13.8696467247049,-6.87564722345678,9327.27225631623,-0.981970310211182,0.464099198579788,35.3975410461426
,CAM01,315644.555476206,13.8730988873975,-6.87297382756153,9325.17347646423,-1.0661940574646,0.442884504795074,35.3435516357422
,CAM01,315647.853479128,13.8765428884209,-6.87030470033194,9323.43854228666,-1.27014100551605,0.451224595308304,35.2511100769043
,CAM01,315651.153037448,13.8799933064369,-6.86763303355428,9322.99644031227,-1.23541700839996,0.510482788085938,35.2461700439453
,CAM01,315654.472941468,13.8834689086294,-6.86494439523971,9323.0756747678,-1.17998003959656,0.512420415878296,35.205379486084
,CAM01,315657.757469294,13.8869103229501,-6.86228333037794,9323.45970063595,-1.02537095546722,0.506743729114532,35.1503410339355
,CAM01,315661.054391194,13.890366031025,-6.85960925361886,9324.17170474575,-0.847094178199768,0.519979774951935,35.129638671875
,CAM01,315664.35256859,13.893822608904,-6.85692931460753,9324.65640527487,-0.995602786540985,0.519345700740814,35.1390495300293
,CAM01,315667.666971079,13.8972971193187,-6.85423320273996,9324.17089606163,-1.24446904659271,0.497384607791901,35.1622085571289
,CAM01,315670.962199894,13.9007552133146,-6.85155256370222,9322.98543723875,-1.2949800491333,0.476459205150604,35.1606712341309
,CAM01,315674.264880616,13.904225641228,-6.84886664525035,9321.74114302812,-1.26923799514771,0.513332188129425,35.1348304748535
,CAM01,315677.571959008,13.9077045433041,-6.84617763748826,9320.96674432174,-1.12419295310974,0.571694374084473,35.1416091918945
,CAM01,315680.882037733,13.9111884172053,-6.84348526303142,9320.8240583771,-1.02735602855682,0.611633002758026,35.1629791259766
,CAM01,315684.164336362,13.9146432733718,-6.84081371641632,9320.97042118646,-0.96152400970459,0.642076313495636,35.2013092041016
,CAM01,315687.460079137,13.9181117726872,-6.8381289127319,9321.67293647285,-1.0613169670105,0.617258012294769,35.2226905822754
,CAM01,315690.774518384,13.9216039928979,-6.83542707405746,9322.49998162685,-1.23476099967957,0.565107583999634,34.9529418945313
,CAM01,315694.076987856,13.9250968746399,-6.83273449517898,9323.12618459662,-1.14958500862122,0.526420891284943,34.8047103881836
,CAM01,315697.371815467,13.9285971208257,-6.83004637484543,9323.8637578688,-0.891146123409271,0.544830977916718,34.7859382629395
,CAM01,315700.689971429,13.9321367785364,-6.82733361724893,9324.0945310853,-0.44610059261322,0.57396799325943,34.8497200012207
,CAM01,315703.97717654,13.9356554588579,-6.82463513428013,9324.4083148414,-0.242119804024696,0.617373883724213,35.015209197998
,CAM01,315707.274779479,13.9391946098891,-6.82191393346279,9325.56652619288,-0.276974886655808,0.663543283939362,35.0920104980469
,CAM01,315710.577082746,13.942748458954,-6.81917590066891,9327.3235387667,-0.46069011092186,0.587245881557465,35.1666603088379
,CAM01,315713.881409589,13.9463163889736,-6.81642509857309,9328.90508674048,-0.5713711977005,0.484136193990707,35.2160987854004
,CAM01,315717.184116667,13.9498965878311,-6.81366583051214,9329.68459270534,-0.58366322517395,0.468138605356216,35.318489074707
,CAM01,315720.491120298,13.9534959291059,-6.81089357246921,9330.06593924696,-0.561862587928772,0.422641009092331,35.4761581420898
,CAM01,315723.777269548,13.9570861210541,-6.80812896011034,9330.67849361645,-0.507644474506378,0.402241706848145,35.6549911499023
,CAM01,315727.089303417,13.9607133048654,-6.80533146973849,9331.80956237186,-0.346033602952957,0.423924386501312,35.9408111572266
,CAM01,315730.390771729,13.9643324639434,-6.80252850806062,9333.40150342912,-0.515958428382874,0.424036890268326,36.0800094604492
,CAM01,315733.683097143,13.9679456426098,-6.79972020107657,9335.16314677362,-0.821615874767303,0.33475598692894,36.1506118774414
,CAM01,315736.995523917,13.9715887088523,-6.79688567571793,9336.84986516574,-1.11034798622131,0.274657487869263,36.1374702453613
,CAM01,315740.296660201,13.9752302295034,-6.79405551683535,9337.62837376856,-1.21751999855042,0.201904192566872,36.0999603271484
,CAM01,315743.593760507,13.9788796802481,-6.79122476043234,9338.26665825968,-1.12754201889038,0.225554198026657,36.042610168457
,CAM01,315746.891443058,13.9825410810771,-6.78838838061495,9338.80539538523,-0.954425692558289,0.228873506188393,35.9309005737305
,CAM01,315750.202533831,13.9862263898376,-6.78553352349998,9339.07523514225,-0.824665486812592,0.272324413061142,35.8165588378906
,CAM01,315753.502882277,13.9899071339147,-6.78268070176468,9339.15534570798,-0.840706706047058,0.238992601633072,35.8325614929199
,CAM01,315756.797103458,13.9935883937394,-6.77982584934689,9339.99786285023,-0.887639582157135,0.275633305311203,35.7494583129883
,CAM01,315760.088708131,13.9972739210802,-6.77696705576496,9340.78271744714,-0.9741250872612,0.256866693496704,35.6923904418945
,CAM01,315763.403537738,14.0009938863447,-6.77408358874005,9340.92047890798,-1.01033902168274,0.185062304139137,35.7060890197754
,CAM01,315766.705512648,14.0047086819521,-6.7712068547408,9341.32346297601,-1.0620219707489,0.19104990363121,35.665470123291
,CAM01,315769.997842096,14.0084188776513,-6.76833825080269,9341.5642351598,-0.839421927928925,0.15595780313015,35.2000999450684
,CAM01,315773.320271387,14.012160960297,-6.76545352335753,9341.48611004513,-0.747970879077911,0.186999902129173,34.9866714477539
,CAM01,315776.611248951,14.0158576504962,-6.76260690705284,9341.78461714574,-0.430947810411453,0.20811739563942,35.2499389648438
,CAM01,315779.903002236,14.0195360912246,-6.75976538230027,9342.14140500749,-0.327647894620895,0.251204013824463,35.6254386901855
,CAM01,315783.202354342,14.0232020872248,-6.75691823103542,9342.09531693252,-0.492677390575409,0.256335198879242,35.8528213500977
,CAM01,315786.520160247,14.0268725039369,-6.75405580180319,9341.95517932375,-1.14832699298859,0.202580407261848,36.0163612365723
,CAM01,315789.813341918,14.03050991287,-6.7512189348107,9341.83866476352,-1.51304304599762,0.197550892829895,36.0393104553223
,CAM01,315793.108435002,14.0341490593865,-6.74838899679919,9341.99238446268,-1.5083099603653,0.195802301168442,35.9797401428223
,CAM01,315796.421337488,14.0378079296621,-6.74555162220147,9341.8610952904,-1.2103990316391,0.171630904078484,35.8112602233887
,CAM01,315799.717790775,14.0414471479214,-6.74273268243471,9341.51810234769,-0.982751429080963,0.272339701652527,35.8204498291016
,CAM01,315803.017886251,14.045086655238,-6.7399125151309,9342.37080328814,-0.756780326366425,0.33726179599762,35.9625701904297
,CAM01,315806.324362631,14.048727446885,-6.73708683097331,9343.0664835501,-0.866574704647064,0.256440311670303,36.1187705993652
,CAM01,315809.628594271,14.0523609789071,-6.73426312007305,9343.06612832498,-0.927379012107849,0.236286699771881,36.1722602844238
,CAM01,315812.922285615,14.0559801330725,-6.73144949985599,9343.34431322642,-1.23393797874451,0.206310302019119,36.2055206298828
,CAM01,315816.220627524,14.0596040545507,-6.72863441067512,9343.56626041252,-1.14172899723053,0.16351230442524,36.1347694396973
,CAM01,315819.53846504,14.0632485824938,-6.7258033464626,9342.6784443658,-1.03051400184631,0.15203869342804,36.0613784790039
,CAM01,315822.828315003,14.0668622330894,-6.72299658173986,9340.6302490931,-1.19474804401398,0.125177800655365,35.9941596984863
,CAM01,315826.12714321,14.0704873257373,-6.72018384425195,9338.43735666545,-1.23989903926849,0.175774902105331,35.9363098144531
,CAM01,315829.422391352,14.0741105631079,-6.71737720295859,9335.84278845587,-1.23045098781586,0.166066899895668,35.9708404541016
,CAM01,315832.739396274,14.0777604173154,-6.71455529492285,9334.0241837485,-1.07482099533081,0.232576102018356,36.035270690918
,CAM01,315836.034143768,14.0813847773754,-6.71175276515092,9333.27077596575,-0.56264740228653,0.338964700698853,36.0928802490234
,CAM01,315839.335550266,14.0850100858651,-6.70894009613491,9332.42262561965,-0.795076787471771,0.34980520606041,36.1247100830078
,CAM01,315842.640703487,14.0886343243385,-6.70612151911243,9331.45764844199,-1.04296803474426,0.329346507787704,36.1013412475586
,CAM01,315845.940260184,14.092250143307,-6.70330842587587,9331.31227984378,-1.26873803138733,0.317232310771942,36.059700012207
,CAM01,315849.243433875,14.0958706490466,-6.70049676429926,9330.93296192848,-1.31216394901276,0.296422988176346,36.1347198486328
,CAM01,315852.537986179,14.0994836956212,-6.69769772101311,9330.10972356969,-1.33923995494843,0.304266601800919,36.1557807922363
,CAM01,315855.844513952,14.1031115815479,-6.69489356219647,9328.93332222243,-0.923559188842773,0.396252393722534,36.2319602966309
,CAM01,315859.142216131,14.1067261877377,-6.69209623359617,9328.45424741109,-0.695396184921265,0.436479210853577,36.2229995727539
,CAM01,315862.438943975,14.1103340383689,-6.68929723225719,9329.14054986732,-0.979245007038116,0.40526419878006,36.2737808227539
,CAM01,315865.753239568,14.1139581676423,-6.68648416938001,9329.42672502233,-1.39953005313873,0.316191613674164,36.2495498657227
,CAM01,315869.048475315,14.1175626105564,-6.68369223669566,9328.44762424402,-1.0827579498291,0.377762913703918,36.1759300231934
,CAM01,315872.34964279,14.1211721936091,-6.68089749763923,9328.02861225251,-0.939142823219299,0.404659807682037,36.0863189697266
,CAM01,315875.656075788,14.1247834241733,-6.67809884117301,9328.16941950158,-0.918714702129364,0.425733685493469,36.0872993469238
,CAM01,315878.960795368,14.128388521293,-6.67530238137405,9328.74273198529,-1.02162003517151,0.371814399957657,36.1352005004883
,CAM01,315882.251670119,14.1319757595138,-6.67251914658739,9329.7957852041,-1.02001297473907,0.326838612556458,36.2096405029297
,CAM01,315885.548222426,14.1355680371987,-6.66973288393164,9330.27816593507,-1.29264104366302,0.298358589410782,36.2000389099121
,CAM01,315888.862023948,14.1391789072071,-6.66693472679717,9330.01484768108,-1.02808499336243,0.309102386236191,36.1012802124023
,CAM01,315892.170566595,14.1427840079492,-6.66414345258809,9328.85825807068,-1.00665295124054,0.265023499727249,36.2048187255859
,CAM01,315895.45452358,14.1463617487131,-6.66137345854496,9327.74499700748,-1.00005102157593,0.293101489543915,36.1984596252441
,CAM01,315898.774866564,14.1499769663686,-6.65857261296674,9327.13324544021,-0.97908741235733,0.398737609386444,36.161750793457
,CAM01,315902.061771847,14.153552730635,-6.65580011857095,9326.61668032906,-0.936161398887634,0.378277808427811,36.1484794616699
,CAM01,315905.364868091,14.1571426790198,-6.65301357723152,9326.0112242815,-1.00092005729675,0.415298014879227,36.1034317016602
,CAM01,315908.672793894,14.160734656789,-6.65022396046508,9326.03670591527,-1.16881895065308,0.415157496929169,36.0625686645508
,CAM01,315911.986597672,14.1643307038556,-6.64743230219241,9326.27500146073,-0.994346678256989,0.474018692970276,36.0065803527832
,CAM01,315915.266798592,14.1678866962062,-6.64467098956351,9326.48645745519,-1.09450101852417,0.427396506071091,35.9783210754395
,CAM01,315918.572351396,14.1714679289349,-6.64189096195741,9326.22211734052,-1.09224200248718,0.390369892120361,36.0142211914063
,CAM01,315921.877825002,14.1750477985933,-6.6391132336703,9325.66943668192,-1.1713570356369,0.365522593259811,36.0273017883301
,CAM01,315925.183084071,14.1786269385873,-6.63633799854665,9325.4912200454,-1.1294219493866,0.384710103273392,36.0029296875
,CAM01,315928.473429206,14.1821885445581,-6.63357764668955,9325.60841165478,-1.05402100086212,0.410802692174912,35.9779396057129
,CAM01,315931.772506341,14.1857571820413,-6.63081123394689,9325.59623149817,-1.00531899929047,0.377133011817932,36.0030899047852
,CAM01,315935.081782055,14.1893350704772,-6.62803657449724,9325.67655149499,-1.05231094360352,0.390962213277817,36.017749786377
,CAM01,315938.387813073,14.1929077205573,-6.62526524053254,9325.67691637589,-1.06227803230286,0.398887991905212,35.9311714172363
,CAM01,315941.681512149,14.1964641043576,-6.62250473105115,9325.77721454859,-0.767799496650696,0.429303497076035,35.8362503051758
,CAM01,315945.002091918,14.2000454509075,-6.61972037851736,9325.64174590802,-1.13454794883728,0.383608013391495,35.8346481323242
,CAM01,315948.283668994,14.2035840917164,-6.61697095387235,9325.25489104255,-1.27547597885132,0.313296288251877,35.8456001281738
,CAM01,315951.591912053,14.2071531819061,-6.61420295370615,9325.135099777,-1.42127394676208,0.323153913021088,35.828540802002
,CAM01,315954.89513409,14.2107188651238,-6.61144332365077,9325.12398251044,-0.989385902881622,0.362052410840988,35.8468284606934
,CAM01,315958.194648728,14.2142792673321,-6.60868701556078,9325.07702799539,-0.78999537229538,0.403340607881546,36.0081405639648
,CAM01,315961.488392151,14.2178298831513,-6.60593315166859,9324.9018559003,-0.745966076850891,0.410761713981628,36.1262283325195
,CAM01,315964.785415428,14.2213798659777,-6.60317365677141,9325.03159337463,-1.08474695682526,0.376848310232162,36.1669311523438
,CAM01,315968.096048697,14.2249426126639,-6.60040313363324,9324.80191054292,-1.32936704158783,0.37553459405899,36.0627288818359
,CAM01,315971.629449771,14.2287463286803,-6.59745037321492,9324.33061110833,-1.24727702140808,0.363693386316299,36.0469093322754
,CAM01,315974.928314954,14.2322988524033,-6.59469720607116,9324.11272830932,-0.952210307121277,0.41432049870491,36.0719299316406
,CAM01,315978.238351843,14.2358616244708,-6.59193489775455,9323.88729236637,-0.95874959230423,0.41413488984108,36.0995407104492
,CAM01,315981.534514427,14.2394072125013,-6.58918390213359,9323.48121767371,-1.0591789484024,0.396678686141968,36.2011413574219
,CAM01,315984.836891749,14.2429581003676,-6.58642808852923,9323.0747401785,-1.02678799629211,0.450606793165207,36.175121307373
,CAM01,315988.131201753,14.2464973640229,-6.58367983802589,9322.69818944594,-1.1022310256958,0.449598997831345,35.9158782958984
,CAM01,315991.448520699,14.250058347439,-6.58091751269381,9322.116751218,-1.32842004299164,0.373869687318802,35.8442306518555
,CAM01,315994.741772652,14.2535928744513,-6.578182475299,9321.44052832312,-0.969546794891357,0.41177698969841,35.859619140625
,CAM01,315998.042517559,14.2571332557737,-6.57544540926908,9320.66231744804,-0.931520998477936,0.435699313879013,35.9832191467285
,CAM01,316001.34849505,14.2606764297678,-6.57270692554078,9319.95382944546,-0.799098312854767,0.461598992347717,36.0520210266113
,CAM01,316004.645342921,14.2642050803785,-6.56997704494462,9319.70453282965,-0.699526488780975,0.523093283176422,36.1279716491699
,CAM01,316007.948294875,14.2677337786938,-6.56724202455877,9319.37716989874,-0.78349781036377,0.540865898132324,36.240291595459
,CAM01,316011.239697023,14.2712447802592,-6.56451714900958,9318.84924986385,-0.946703374385834,0.526234686374664,36.2818298339844
,CAM01,316014.557997387,14.2747811752877,-6.56177274297065,9318.20705763006,-1.12348997592926,0.499441087245941,36.3561096191406
,CAM01,316017.851123894,14.2782893890847,-6.55905357631416,9317.90992879679,-1.04772794246674,0.520816326141357,36.3795700073242
,CAM01,316021.147778288,14.2817992422823,-6.55633511371006,9317.82900390003,-0.984506070613861,0.519892275333405,36.3773307800293
,CAM01,316024.457829652,14.2853198187273,-6.55360791617104,9317.96171626603,-0.8046715259552,0.560364902019501,36.4076881408691
,CAM01,316027.755957408,14.2888227754198,-6.55089150155793,9318.39081579146,-0.913599729537964,0.547918081283569,36.4134101867676
,CAM01,316031.056106685,14.292323992237,-6.54817554314488,9318.79545145174,-0.951011121273041,0.506457328796387,36.4672508239746
,CAM01,316034.349055593,14.2958143067733,-6.54546703021727,9319.14917503992,-0.917599618434906,0.498316407203674,36.4471092224121
,CAM01,316037.674532486,14.2993360390305,-6.54273286820371,9319.03281974839,-1.0133969783783,0.442921310663223,36.4529304504395
,CAM01,316040.96657771,14.302821117979,-6.54002801363554,9318.38451815541,-1.02455103397369,0.435464799404144,36.5029106140137
,CAM01,316044.259254221,14.3063065804454,-6.53732278343761,9317.65285616447,-0.968056380748749,0.484108000993729,36.6489105224609
,CAM01,316047.569558721,14.3098105702762,-6.53460129900526,9317.43437009775,-0.975054919719696,0.493261694908142,36.7676582336426
,CAM01,316050.874628771,14.3133085596846,-6.53188160235535,9317.63055151309,-1.14668798446655,0.511458277702332,36.7861099243164
00020001.JPG,CAM02,313776.204437092,12.5020040071953,-8.00226944349563,9150.28510490041,-3.90864300727844,1.97634100914001,69.7496490478516
00020002.JPG,CAM02,313779.524318787,12.5033039557754,-7.99870306425746,9150.54810483568,-8.43533420562744,1.80758595466614,68.8149871826172
00020003.JPG,CAM02,313782.821058598,12.5046979188699,-7.99520270139293,9148.88924069754,-11.7034196853638,1.69412696361542,66.4818496704102
00020004.JPG,CAM02,313786.120617575,12.5062424132089,-7.99176069961733,9146.0024200847,-9.35113620758057,1.7099050283432,62.3387298583984
00020005.JPG,CAM02,313789.434430252,12.507927199925,-7.98836323275449,9144.81058525163,-5.49308395385742,1.96067297458649,59.3530807495117
00020006.JPG,CAM02,313792.728286076,12.5096901094574,-7.9850254774553,9146.29879974019,-4.92900419235229,2.07573294639587,57.3678512573242
00020007.JPG,CAM02,313796.028532699,12.5115305188304,-7.98171766083744,9148.06423201725,-5.10613298416138,2.06832504272461,56.3029594421387
00020008.JPG,CAM02,313799.32248128,12.5134489330865,-7.97846327501027,9150.09330039302,-6.15004110336304,2.02918291091919,55.3068199157715
00020009.JPG,CAM02,313802.633783713,12.5154606466797,-7.97524209889284,9150.91995213107,-4.22810792922974,1.99848902225494,53.8732299804688
00020010.JPG,CAM02,313805.931291601,12.5175191283689,-7.97206744547625,9152.43822757493,-3.746258020401,2.04301595687866,52.7385101318359
00020011.JPG,CAM02,313809.231230076,12.5196256013583,-7.96891997785393,9154.15993930292,-2.98130393028259,2.12987899780273,51.7985191345215
00020012.JPG,CAM02,313812.530209501,12.5217688944535,-7.96579885784275,9155.07799116498,-3.00431489944458,2.02983498573303,51.1794509887695
00020013.JPG,CAM02,313815.839850585,12.5239562377578,-7.96269289558944,9155.72405220079,-3.19938492774963,1.88215601444244,50.6199989318848
00020014.JPG,CAM02,313819.136935385,12.5261745287834,-7.9596235916023,9156.14246297445,-3.00261998176575,1.86693298816681,50.1579284667969
00020015.JPG,CAM02,313822.432920344,12.5284305518404,-7.9565798045754,9156.82903198106,-3.54481792449951,1.85745000839233,49.4770011901855
00020016.JPG,CAM02,313825.749601538,12.5307398288952,-7.95354464272008,9156.73348979551,-3.08292698860168,1.6295850276947,48.972240447998
00020017.JPG,CAM02,313829.048536771,12.5330724147779,-7.95055098722198,9156.09284831718,-3.74606108665466,1.6833770275116,48.5865707397461
00020018.JPG,CAM02,313832.340770311,12.5354402943325,-7.94759269372319,9154.53501290607,-3.32427501678467,1.60667896270752,47.9336891174316
00020019.JPG,CAM02,313835.654106455,12.5378612386687,-7.9446428690385,9153.69223019894,-3.77227997779846,1.65335702896118,47.0584907531738
00020020.JPG,CAM02,313838.951384394,12.5403093514126,-7.94173869427668,9152.53374834823,-3.50894904136658,1.53174197673798,46.1915702819824
00020021.JPG,CAM02,313842.247843621,12.5427942732592,-7.93886508648057,9151.36065154671,-3.68773889541626,1.57385897636414,45.3137016296387
00020022.JPG,CAM02,313845.546578202,12.5453193472505,-7.93602145354925,9149.8798615515,-3.63134098052979,1.62295997142792,44.3632316589355
00020023.JPG,CAM02,313848.856192041,12.5478888512574,-7.93320285145478,9147.23545369486,-3.19226789474487,1.74284994602203,43.5697708129883
00020024.JPG,CAM02,313852.158853636,12.5504866089891,-7.93042192297006,9145.90464725248,-3.42048406600952,1.82404494285583,43.1079711914063
00020025.JPG,CAM02,313855.450489047,12.5531064949385,-7.92768298818815,9146.20070553618,-3.36221098899841,1.96827495098114,42.3315010070801
00020026.JPG,CAM02,313858.763676528,12.5557729040501,-7.9249630655513,9144.89216897045,-4.09099197387695,1.67363297939301,41.7089195251465
00020027.JPG,CAM02,313862.060207442,12.5584622354786,-7.92229861638357,9143.96822835313,-4.36363887786865,1.80957305431366,40.8445281982422
00020028.JPG,CAM02,313865.360211227,12.5611880963062,-7.91967293834808,9142.54032224041,-3.63652300834656,1.62992596626282,39.6383209228516
00020029.JPG,CAM02,313868.65643837,12.563934394075,-7.91707900290034,9142.49111464243,0.970885396003723,1.87197399139404,39.3943481445313
00020030.JPG,CAM02,313871.967045916,12.5666816308074,-7.91446252501503,9140.28679047343,-0.769341588020325,1.64151501655579,39.6128387451172
00020031.JPG,CAM02,313875.264532835,12.5694153623945,-7.91185347902279,9139.53150841473,-2.34520411491394,1.88586795330048,39.9972610473633
00020032.JPG,CAM02,313878.563317867,12.5721623231464,-7.90926054702292,9140.58766673641,-0.401813089847565,2.03790092468262,39.6341781616211
00020033.JPG,CAM02,313881.857107031,12.57490017714,-7.90667522440921,9141.53354776015,1.11853802204132,2.08575797080994,39.7484703063965
00020034.JPG,CAM02,313885.168118936,12.5776299281911,-7.90406025828938,9142.56922626028,0.919988870620728,1.96346604824066,39.9819984436035
00020035.JPG,CAM02,313888.4668055,12.5803307678335,-7.90144127573228,9143.01942773215,0.603887677192688,1.93163204193115,40.2367706298828
00020036.JPG,CAM02,313891.76253641,12.5830165818177,-7.89881641263724,9142.99955511479,-0.076172910630703,1.72548294067383,40.3926696777344
00020037.JPG,CAM02,313895.07559116,12.5857126497042,-7.89617386659951,9142.58723577627,-0.181160494685173,1.80321896076202,40.316951751709
00020038.JPG,CAM02,313898.372551882,12.5883970861851,-7.89354126732054,9141.81513779603,-0.495762199163437,1.75138604640961,40.2150802612305
00020039.JPG,CAM02,313901.66815599,12.5910857915781,-7.89090773003867,9141.7348292163,0.760213673114777,1.77776300907135,39.9384117126465
00020040.JPG,CAM02,313904.966232804,12.5937677128317,-7.88825517503245,9140.67027679128,4.08008480072021,1.73752701282501,40.3712615966797
00020041.JPG,CAM02,313908.279096054,12.5964150691763,-7.88553442592036,9139.72099913928,8.28014945983887,1.95344603061676,41.5855484008789
00020042.JPG,CAM02,313911.577532265,12.5989669426186,-7.88271959346075,9137.13834356971,9.08884716033936,2.02275800704956,44.3709297180176
00020043.JPG,CAM02,313914.87349499,12.6014195138168,-7.87980390909328,9136.51173289089,6.69060516357422,2.22606897354126,47.0414505004883
00020044.JPG,CAM02,313918.194376958,12.6038028825565,-7.8767851392794,9138.22815895397,7.48133420944214,2.16391897201538,48.978630065918
00020045.JPG,CAM02,313921.483044439,12.6060767320595,-7.87372293586442,9139.3008514571,1.04503095149994,2.11070394515991,50.4062614440918
00020046.JPG,CAM02,313924.78137337,12.6083302222918,-7.87063110408727,9142.01055642494,-0.825525879859924,1.99312198162079,50.4111099243164
00020047.JPG,CAM02,313928.076351405,12.6105812723383,-7.8675428041117,9143.268449924,2.08781003952026,1.96927094459534,50.882438659668
00020048.JPG,CAM02,313931.393262956,12.6128233457203,-7.86441356794335,9143.83730569752,0.312033414840698,2.00186109542847,51.1427917480469
00020049.JPG,CAM02,313934.690345825,12.6150436270466,-7.86129380094574,9144.79904647347,0.350945591926575,1.849573969841,50.9608001708984
00020050.JPG,CAM02,313937.990246161,12.6172604863525,-7.85816325514035,9146.5949519197,0.697842121124268,1.79943096637726,50.9740295410156
00020051.JPG,CAM02,313941.283036916,12.6194642082455,-7.85502907044965,9147.24030748762,0.917662084102631,1.80682897567749,51.2141494750977
00020052.JPG,CAM02,313944.595845028,12.6216747043676,-7.85186382959835,9146.8188307378,-0.0623733811080456,1.661288022995,51.1820793151855
00020053.JPG,CAM02,313947.894657036,12.6238785805881,-7.84870517889147,9146.37823231697,0.480221301317215,1.68124103546143,50.9610710144043
00020054.JPG,CAM02,313951.190642593,12.6260775603684,-7.8455405051269,9145.79842533608,0.554310977458954,1.60673999786377,51.2847595214844
00020055.JPG,CAM02,313954.491406667,12.6282735566563,-7.84236194818659,9145.36962113114,0.674635887145996,1.74500298500061,51.4006996154785
00020056.JPG,CAM02,313957.796660346,12.6304654882355,-7.83917182411627,9143.98405235838,0.259198188781738,1.53770005702972,51.6101493835449
00020057.JPG,CAM02,313961.09481579,12.6326470801372,-7.83598137123811,9144.25346047002,0.214956805109978,1.7096780538559,51.3852500915527
00020058.JPG,CAM02,313964.391869973,12.6348233892143,-7.83278810428715,9144.20656670817,0.545682072639465,1.7456339597702,51.4438514709473
00020059.JPG,CAM02,313967.692453464,12.6369952530726,-7.82958522489682,9143.63567682641,0.266859292984009,1.59352803230286,51.7151908874512
00020060.JPG,CAM02,313971.001407453,12.6391671379051,-7.82636843572108,9143.46860776053,0.0154261598363519,1.55968201160431,51.6105613708496
00020061.JPG,CAM02,313974.299065122,12.6413294339753,-7.82315986662522,9142.60785340646,-0.0700423792004585,1.5327969789505,51.5786285400391
00020062.JPG,CAM02,313977.594454019,12.643489535229,-7.81995099587852,9141.67584988529,0.226931899785995,1.57479405403137,51.6045188903809
00020063.JPG,CAM02,313980.905793477,12.6456556713863,-7.81672243419439,9140.68929633915,0.123543001711369,1.68852996826172,51.7962493896484
00020064.JPG,CAM02,313984.205273009,12.647810092611,-7.81350406269377,9139.7983934921,-0.02100302092731,1.69228601455688,52.027271270752
00020065.JPG,CAM02,313987.501360553,12.6499611120227,-7.81029094020352,9140.54844447959,-0.525403678417206,1.7654550075531,52.0342483520508
00020066.JPG,CAM02,313990.798471935,12.6521164522495,-7.80708508627028,9141.84631737555,-0.145011097192764,1.72374498844147,51.9096984863281
00020067.JPG,CAM02,313994.113793581,12.6542844272397,-7.80386705725919,9142.19249273967,-0.193767696619034,1.72931301593781,51.8431510925293
00020068.JPG,CAM02,313997.407499036,12.6564380612842,-7.80067325950059,9142.41800639449,-0.0124390497803688,1.69609498977661,51.6669807434082
00020069.JPG,CAM02,314000.703784967,12.6585934305969,-7.79747948686141,9143.32199321741,-0.154963105916977,1.59754300117493,51.618579864502
00020070.JPG,CAM02,314004.019190344,12.6607605127687,-7.79426713738255,9145.16011924101,0.716720700263977,1.60539400577545,51.5863494873047
00020071.JPG,CAM02,314007.315282305,12.662906782393,-7.7910688856455,9145.36303842606,0.0257866196334362,1.56320095062256,51.758659362793
00020072.JPG,CAM02,314010.616011594,12.66505461256,-7.78786520041053,9143.59052716122,-0.000829265627544373,1.56286799907684,51.8511581420898
00020073.JPG,CAM02,314013.911076912,12.6671994699854,-7.78466715149992,9141.84272861931,-0.184953793883324,1.62787699699402,51.8246994018555
00020074.JPG,CAM02,314017.227537216,12.6693580283576,-7.78144813801353,9140.60015226774,0.189511105418205,1.60536205768585,51.8024291992188
00020075.JPG,CAM02,314020.519470092,12.6714986627237,-7.77825052028802,9139.50487346035,0.293664187192917,1.56852602958679,51.6631813049316
00020076.JPG,CAM02,314023.816557997,12.6736387062731,-7.77504318741111,9138.90205649359,0.610864102840424,1.60925197601318,51.5837097167969
00020077.JPG,CAM02,314027.130430547,12.675781802065,-7.77181180419245,9138.87639398222,0.494848489761353,1.76027405261993,51.7121810913086
00020078.JPG,CAM02,314030.426538338,12.6779045976617,-7.76859260155086,9138.17183050044,0.552068591117859,1.75842797756195,51.7517890930176
00020079.JPG,CAM02,314033.728018235,12.68002333054,-7.76536359182679,9137.61403620111,0.0608930811285973,1.72764003276825,51.8349990844727
00020080.JPG,CAM02,314037.020922514,12.6821341958944,-7.76214265051203,9137.78561674494,1.45196902751923,1.61456298828125,52.1532096862793
00020081.JPG,CAM02,314040.338638167,12.6842167425709,-7.75886884874223,9136.04241198586,15.6530704498291,1.90502905845642,53.2092399597168
00020082.JPG,CAM02,314043.638142343,12.6861001986808,-7.7554799802777,9124.38344571134,23.3003807067871,1.72593402862549,57.7972602844238
00020083.JPG,CAM02,314046.926904355,12.6876543761493,-7.75189958631495,9110.6987413012,23.3134708404541,2.34612202644348,66.1165771484375
00020084.JPG,CAM02,314050.242842546,12.6888095090358,-7.74810906846825,9104.19611665824,26.3781204223633,2.80720496177673,72.295768737793
00020085.JPG,CAM02,314053.539879006,12.6895010064716,-7.74421346920359,9098.40659198461,29.2839298248291,2.89092493057251,80.4189071655273
00020086.JPG,CAM02,314056.842053339,12.6896584023094,-7.74024013863087,9091.41247000756,33.6521110534668,2.95939588546753,89.2434997558594
00020087.JPG,CAM02,314060.130969929,12.6891993808514,-7.73629336613532,9083.2968754112,33.0674591064453,3.02859306335449,100.006500244141
00020088.JPG,CAM02,314063.443523599,12.6880891109268,-7.73245096032193,9080.13860357436,32.0849113464355,3.35664296150208,110.393096923828
00020089.JPG,CAM02,314066.741508978,12.686385143349,-7.72888663981241,9082.90230085263,31.5871906280518,3.51370406150818,120.85489654541
00020090.JPG,CAM02,314070.042492201,12.6841500018634,-7.72567893867076,9089.66872597943,31.539249420166,3.84339809417725,130.638900756836
00020091.JPG,CAM02,314073.339539127,12.6814698875705,-7.72291086598258,9097.71875827003,33.6913681030273,3.69636106491089,139.694000244141
00020092.JPG,CAM02,314076.650173301,12.6784053919475,-7.72063108645804,9103.6424907266,29.8902492523193,3.45270299911499,149.488906860352
00020093.JPG,CAM02,314079.94405959,12.6750789218867,-7.71889471612687,9111.0069208333,29.227819442749,3.53367590904236,158.241104125977
00020094.JPG,CAM02,315152.628975905,13.3518346124653,-7.27452217020259,9329.71291073817,-0.796049118041992,0.373907297849655,35.8717498779297
00020095.JPG,CAM02,315155.949807931,13.3554423330276,-7.27176193210888,9330.26659805999,-0.693666100502014,0.367733597755432,35.8528289794922
00020096.JPG,CAM02,315159.248201804,13.3590272182179,-7.26901756991664,9331.59316944078,-0.569064974784851,0.380719602108002,35.8635711669922
00020097.JPG,CAM02,315162.544713212,13.3626103416243,-7.26627115519577,9332.89755490026,-0.56787371635437,0.361972987651825,35.8679504394531
00020098.JPG,CAM02,315165.859691117,13.3662138841749,-7.26350576198412,9333.36505905156,-0.834285914897919,0.304256588220596,35.7834205627441
00020099.JPG,CAM02,315169.154217351,13.3697981661784,-7.2607568204667,9332.41466295815,-0.725666701793671,0.253925710916519,35.7496109008789
00020100.JPG,CAM02,315172.451173185,13.3733877421728,-7.25800598617618,9331.42522089678,-0.704815983772278,0.267921209335327,35.6862602233887
00020101.JPG,CAM02,315175.747892445,13.3769786711769,-7.25525624573261,9330.8562857903,-0.667132019996643,0.266776114702225,35.7061500549316
00020102.JPG,CAM02,315179.0627768,13.380589800406,-7.25249188968408,9330.41551677205,-0.543991982936859,0.352589994668961,35.6720504760742
00020103.JPG,CAM02,315182.358730194,13.3841788334709,-7.24974300592345,9330.23831547284,-0.452612191438675,0.409447997808456,35.7343788146973
00020104.JPG,CAM02,315185.656429933,13.3877666122102,-7.24699148338777,9330.11528684519,-0.471726506948471,0.400698095560074,35.7291107177734
00020105.JPG,CAM02,315188.952658891,13.3913493031011,-7.2442401662026,9329.98106099701,-0.542111575603485,0.439123809337616,35.6066093444824
00020106.JPG,CAM02,315192.264586396,13.3949460851607,-7.24147608001897,9330.13557173254,-0.600436091423035,0.423005014657974,35.5096015930176
,CAM02,315195.559986318,13.3985228932834,-7.23872701592638,9330.01266485729,-0.643586814403534,0.356065005064011,35.4915008544922
,CAM02,315198.858337216,13.4021026889918,-7.23597714853107,9329.11048350527,-0.798603296279907,0.322029292583466,35.5059204101563
,CAM02,315202.171541428,13.4056999002433,-7.2332178593913,9327.67849502391,-0.735519111156464,0.36638081073761,35.4995918273926
,CAM02,315205.468817514,13.4092799412783,-7.23047381013105,9326.46900243609,-0.537671804428101,0.390209496021271,35.4566688537598
,CAM02,315208.768871377,13.412861365199,-7.22772763059658,9326.40140057517,-0.52763170003891,0.44328960776329,35.5478782653809
,CAM02,315212.062521653,13.4164327159691,-7.22498689994129,9326.64981258385,-0.465274512767792,0.509446084499359,35.5790405273438
,CAM02,315215.38017434,13.4200254924427,-7.22222586279101,9326.58489458399,-0.513892889022827,0.484038501977921,35.4795112609863
,CAM02,315218.675553028,13.4235903637154,-7.21948346023142,9326.51993407389,-0.58850222826004,0.498671412467957,35.4253692626953
,CAM02,315221.975599355,13.4271575145675,-7.2167384433726,9327.01800049166,-0.70581978559494,0.511675298213959,35.3834190368652
,CAM02,315225.286953208,13.4307349999559,-7.21398708036717,9327.30008383442,-0.718754589557648,0.450587898492813,35.3550109863281
,CAM02,315228.583905824,13.4342958553731,-7.21125060621776,9327.7003530088,-0.668094992637634,0.459864914417267,35.3229293823242
,CAM02,315231.877157715,13.4378511427898,-7.20851951713253,9328.23715119559,-0.661391377449036,0.444178313016891,35.3280487060547
,CAM02,315235.170533942,13.4414049082638,-7.20579070097177,9328.43739971306,-0.70240181684494,0.418473899364471,35.35791015625
,CAM02,315238.484340971,13.4449792599174,-7.20304703844103,9328.30745303739,-0.617307782173157,0.438129097223282,35.3202514648438
,CAM02,315241.792393199,13.4485455360833,-7.2003095676662,9327.88558391494,-0.632066428661346,0.477531611919403,35.3355102539063
,CAM02,315245.084898769,13.4520929102674,-7.19758662435883,9327.36087431628,-0.616721987724304,0.484864085912704,35.3744010925293
,CAM02,315248.399776714,13.4556617786204,-7.19484648098563,9327.28557736378,-0.611576974391937,0.515113472938538,35.3661804199219
,CAM02,315251.688728216,13.4591999173995,-7.1921290811333,9327.77267099199,-0.595202326774597,0.498558610677719,35.3802185058594
,CAM02,315254.984183566,13.462742364399,-7.18940696997221,9328.34705037282,-0.567735314369202,0.506267428398132,35.3371200561523
,CAM02,315258.282715077,13.4662854500978,-7.18668271764418,9328.99371068661,-0.61855012178421,0.477217197418213,35.3268814086914
,CAM02,315261.59332988,13.4698402878942,-7.1839497742352,9329.27690265161,-0.701536595821381,0.435649991035461,35.3801307678223
,CAM02,315264.891988326,13.4733823011073,-7.18122843992953,9329.38827935534,-0.652455627918243,0.399808913469315,35.4900093078613
,CAM02,315268.190076397,13.4769231957848,-7.17850804131265,9329.73327652518,-0.558603286743164,0.418232411146164,35.4864807128906
,CAM02,315271.502843165,13.4804778437034,-7.17577474341605,9330.29028981514,-0.509829819202423,0.488936692476273,35.4441909790039
,CAM02,315274.806408889,13.4840196168759,-7.17304840835173,9330.51952045107,-0.629242300987244,0.429297387599945,35.4586181640625
,CAM02,315278.094428343,13.4875430918066,-7.1703356071807,9330.27797816418,-0.657707989215851,0.409478008747101,35.3874206542969
,CAM02,315281.4001024,13.491084951345,-7.16760946383847,9329.93689858854,-0.741810023784637,0.383190512657166,35.3495788574219
,CAM02,315284.706692332,13.49462812235,-7.16488435292543,9329.55709059417,-0.567891597747803,0.443184912204742,35.3758811950684
,CAM02,315288.009590836,13.4981657139603,-7.16216269857211,9329.70528810017,-0.475577712059021,0.460071504116058,35.4624404907227
,CAM02,315291.300662368,13.5016878132038,-7.15945048173347,9330.12087941785,-0.71390837430954,0.416027188301086,35.4563407897949
,CAM02,315294.594614993,13.5052119533361,-7.1567374373723,9330.31893173371,-0.64040070772171,0.427430003881454,35.3423004150391
,CAM02,315297.909472745,13.508756752761,-7.1540081149877,9330.45139622822,-0.597362399101257,0.42059400677681,35.298469543457
,CAM02,315301.202968838,13.5122766195785,-7.15129714806278,9330.69090190646,-0.620142221450806,0.441558003425598,35.2730102539063
,CAM02,315304.502800228,13.5158012071987,-7.1485820727538,9331.36696355018,-0.645734429359436,0.41742131114006,35.1610107421875
,CAM02,315307.807783138,13.5193298833799,-7.14586465515206,9332.29517807996,-0.65696257352829,0.373952209949493,35.1430816650391
,CAM02,315311.11857089,13.5228642956037,-7.14314434759141,9332.92970248672,-0.702413380146027,0.332122594118118,35.1889114379883
,CAM02,315314.416182498,13.5263853307223,-7.14043640839953,9332.84395843465,-0.632923722267151,0.279141008853912,35.2333984375
,CAM02,315317.708158859,13.529901120075,-7.13773303131986,9331.97079190871,-0.526324987411499,0.268551796674728,35.2856788635254
,CAM02,315321.031194414,13.533449887197,-7.13500225800055,9330.7811669391,-0.498238503932953,0.297128587961197,35.3334693908691
,CAM02,315324.320718991,13.5369620106761,-7.13229676111711,9329.76407717173,-0.568038403987885,0.35984680056572,35.3670806884766
,CAM02,315327.622624491,13.5404863674147,-7.12958041870794,9328.82310961027,-0.656456470489502,0.387283086776733,35.395320892334
,CAM02,315330.927274706,13.5440127919848,-7.12686261944112,9328.33153673177,-0.62297260761261,0.42449739575386,35.3974189758301
,CAM02,315334.231577708,13.5475371929807,-7.12414594901098,9328.27190346059,-0.57933521270752,0.4469093978405,35.3927917480469
,CAM02,315337.519429609,13.5510420608844,-7.12144330929166,9328.10874367331,-0.66600900888443,0.404527813196182,35.4336090087891
,CAM02,315340.817782497,13.5545572344608,-7.11873308045508,9327.90099479775,-0.717545688152313,0.391331195831299,35.4357795715332
,CAM02,315344.131124028,13.55808848736,-7.11601261903182,9327.84953720767,-0.753588914871216,0.373114585876465,35.4896392822266
,CAM02,315347.427489392,13.5616019173952,-7.1133087938655,9327.72104474589,-0.756902515888214,0.379754513502121,35.5483894348145
,CAM02,315350.724364142,13.5651157713206,-7.11060691162364,9327.50562378755,-0.635343909263611,0.372474610805511,35.5480613708496
